<?xml version="1.0" encoding="utf-8"?>
<data>
    <subway
        name="高雄捷運"
        _id="17"
        id="4329"
        lat="22.5648200"
        lng="120.3538340"
        zoom="16">
        <line
            name="高雄紅線"
            _id="238"
            id="238"
            lat="22.6313980"
            lng="120.3019600"
            zoom="14">
            <station
                name="小港"
                _id="239"
                id="4329"
                lat="22.5648200"
                lng="120.3538340"
                zoom="16" />
            <station
                name="高雄國際機場"
                _id="240"
                id="4330"
                lat="22.5701259"
                lng="120.3421350"
                zoom="16" />
            <station
                name="草衙"
                _id="241"
                id="4331"
                lat="22.5803690"
                lng="120.3284450"
                zoom="16" />
            <station
                name="前鎮高中"
                _id="242"
                id="4332"
                lat="22.5883240"
                lng="120.3217660"
                zoom="16" />
            <station
                name="凱旋"
                _id="243"
                id="4333"
                lat="22.5968430"
                lng="120.3151410"
                zoom="16" />
            <station
                name="獅甲"
                _id="244"
                id="4334"
                lat="22.6058810"
                lng="120.3081990"
                zoom="16" />
            <station
                name="三多商圈"
                _id="245"
                id="4335"
                lat="22.6138490"
                lng="120.3046160"
                zoom="16" />
            <station
                name="中央公園"
                _id="246"
                id="4336"
                lat="22.6246290"
                lng="120.3011930"
                zoom="16" />
            <station
                name="美麗島"
                _id="247"
                id="4337"
                lat="22.6313980"
                lng="120.3019600"
                zoom="16" />
            <station
                name="高雄車站"
                _id="248"
                id="4338"
                lat="22.6396760"
                lng="120.3026690"
                zoom="16" />
            <station
                name="後驛"
                _id="249"
                id="4339"
                lat="22.6483200"
                lng="120.3033440"
                zoom="16" />
            <station
                name="凹子底"
                _id="250"
                id="4340"
                lat="22.6572310"
                lng="120.3030650"
                zoom="16" />
            <station
                name="巨蛋"
                _id="251"
                id="4341"
                lat="22.6662560"
                lng="120.3033550"
                zoom="16" />
            <station
                name="生態園區"
                _id="252"
                id="4342"
                lat="22.6768340"
                lng="120.3066760"
                zoom="16" />
            <station
                name="左營"
                _id="253"
                id="4343"
                lat="22.6880250"
                lng="120.3091760"
                zoom="16" />
            <station
                name="世運"
                _id="254"
                id="4344"
                lat="22.7016150"
                lng="120.3025130"
                zoom="16" />
            <station
                name="油廠國小"
                _id="255"
                id="4345"
                lat="22.7086170"
                lng="120.3023090"
                zoom="16" />
            <station
                name="楠梓加工區"
                _id="256"
                id="4346"
                lat="22.7187010"
                lng="120.3071990"
                zoom="16" />
            <station
                name="後勁"
                _id="257"
                id="4347"
                lat="22.7223490"
                lng="120.3163320"
                zoom="16" />
            <station
                name="都會公園"
                _id="258"
                id="4348"
                lat="22.7293400"
                lng="120.3209930"
                zoom="16" />
            <station
                name="青埔"
                _id="259"
                id="4349"
                lat="22.7446730"
                lng="120.3177050"
                zoom="16" />
            <station
                name="橋頭糖廠"
                _id="260"
                id="4350"
                lat="22.7534640"
                lng="120.3144920"
                zoom="16" />
            <station
                name="橋頭火車站"
                _id="261"
                id="4351"
                lat="22.7604340"
                lng="120.3108920"
                zoom="16" />
            <station
                name="南岡山"
                _id="262"
                id="4352"
                lat="22.7806300"
                lng="120.3017400"
                zoom="16" />
        </line>
        <line
            name="高雄橘線"
            _id="263"
            id="263"
            lat="22.6313980"
            lng="120.3019600"
            zoom="14">
            <station
                name="西子灣"
                _id="264"
                id="4353"
                lat="22.6215440"
                lng="120.2745430"
                zoom="16" />
            <station
                name="鹽埕埔"
                _id="265"
                id="4354"
                lat="22.6235100"
                lng="120.2837500"
                zoom="16" />
            <station
                name="市議會"
                _id="266"
                id="4355"
                lat="22.6290260"
                lng="120.2948900"
                zoom="16" />
            <station
                name="美麗島"
                _id="267"
                id="4337"
                lat="22.6313980"
                lng="120.3019600"
                zoom="16" />
            <station
                name="信義國小"
                _id="268"
                id="4357"
                lat="22.6307540"
                lng="120.3116320"
                zoom="16" />
            <station
                name="文化中心"
                _id="269"
                id="4358"
                lat="22.6302940"
                lng="120.3175920"
                zoom="16" />
            <station
                name="五塊厝"
                _id="270"
                id="4359"
                lat="22.6295570"
                lng="120.3276890"
                zoom="16" />
            <station
                name="技擊館"
                _id="271"
                id="4360"
                lat="22.6273280"
                lng="120.3343240"
                zoom="16" />
            <station
                name="衛武營"
                _id="272"
                id="4361"
                lat="22.6251290"
                lng="120.3410560"
                zoom="16" />
            <station
                name="鳳山西"
                _id="273"
                id="4362"
                lat="22.6253470"
                lng="120.3480460"
                zoom="16" />
            <station
                name="鳳山"
                _id="274"
                id="4363"
                lat="22.6259510"
                lng="120.3553740"
                zoom="16" />
            <station
                name="大東"
                _id="275"
                id="4364"
                lat="22.6253440"
                lng="120.3633910"
                zoom="16" />
            <station
                name="鳳山國中"
                _id="276"
                id="4365"
                lat="22.6249060"
                lng="120.3724760"
                zoom="16" />
            <station
                name="大寮"
                _id="277"
                id="4366"
                lat="22.6223800"
                lng="120.3902800"
                zoom="16" />
        </line>
        <line
            name="高雄輕軌"
            _id="307"
            id="307"
            lat="22.6313980"
            lng="120.3019600"
            zoom="14">
            <station
                name="籬仔內"
                _id="263"
                id="66338"
                lat="22.604713"
                lng="120.32465"
                zoom="16" />
            <station
                name="凱旋瑞田"
                _id="263"
                id="66339"
                lat="22.599171"
                lng="120.319388"
                zoom="16" />
            <station
                name="前鎮之星"
                _id="263"
                id="66340"
                lat="22.593056"
                lng="120.311667"
                zoom="16" />
            <station
                name="凱旋中華"
                _id="263"
                id="66341"
                lat="22.593631"
                lng="120.310519"
                zoom="16" />
            <station
                name="夢時代"
                _id="263"
                id="66342"
                lat="22.595248"
                lng="120.304888"
                zoom="16" />
            <station
                name="經貿園區"
                _id="263"
                id="66343"
                lat="22.600972"
                lng="120.302633"
                zoom="16" />
            <station
                name="軟體園區"
                _id="263"
                id="66344"
                lat="22.605442"
                lng="120.300916"
                zoom="16" />
            <station
                name="高雄展覽館"
                _id="263"
                id="66345"
                lat="22.610003"
                lng="120.297732"
                zoom="16" />
        </line>
    </subway>
</data>