<?xml version="1.0" encoding="utf-8"?>
<data>
    <subway
        name="桃園捷運"
        _id="278"
        id="278"
        lat="22.5648200"
        lng="120.3538340"
        zoom="16">
        <line
            name="機場線"
            _id="278"
            id="278"
            lat="25.048611"
            lng="121.514167"
            zoom="14">
            <station
                name="台北車站"
                _id="279"
                id="4181"
                lat="25.048611"
                lng="121.514167"
                zoom="16" />
            <station
                name="三重"
                _id="280"
                id="4213"
                lat="25.055833"
                lng="121.484722"
                zoom="16" />
            <station
                name="新北產業園區"
                _id="281"
                id="66317"
                lat="25.061667"
                lng="121.458611"
                zoom="16" />
            <station
                name="新莊副都心"
                _id="282"
                id="66318"
                lat="25.058889"
                lng="121.445556"
                zoom="16" />
            <station
                name="泰山"
                _id="283"
                id="66319"
                lat="25.053056"
                lng="121.439167"
                zoom="16" />
            <station
                name="泰山貴和"
                _id="284"
                id="66320"
                lat="25.033056"
                lng="121.4225"
                zoom="16" />
            <station
                name="體育大學"
                _id="285"
                id="66321"
                lat="25.041111"
                lng="121.385278"
                zoom="16" />
            <station
                name="長庚醫院"
                _id="286"
                id="66335"
                lat="25.060278"
                lng="121.370833"
                zoom="16" />
            <station
                name="林口"
                _id="287"
                id="66322"
                lat="25.065556"
                lng="121.361111"
                zoom="16" />
            <station
                name="山鼻"
                _id="288"
                id="66323"
                lat="25.080556"
                lng="121.285"
                zoom="16" />
            <station
                name="坑口"
                _id="289"
                id="66324"
                lat="25.086389"
                lng="121.266389"
                zoom="16" />
            <station
                name="機場第一航廈"
                _id="290"
                id="66325"
                lat="25.080278"
                lng="121.238056"
                zoom="16" />
            <station
                name="機場第二航廈"
                _id="291"
                id="66326"
                lat="25.076667"
                lng="121.231389"
                zoom="16" />
            <station
                name="機場旅館"
                _id="297"
                id="66327"
                lat="25.068650"
                lng="121.220792"
                zoom="16" />
            <station
                name="大園"
                _id="298"
                id="66328"
                lat="25.060709"
                lng="121.210453"
                zoom="16" />
            <station
                name="橫山"
                _id="299"
                id="66329"
                lat="25.038026"
                lng="121.215743"
                zoom="16" />
            <station
                name="領航"
                _id="300"
                id="66330"
                lat="25.024524"
                lng="121.220593"
                zoom="16" />
            <station
                name="高鐵桃園站"
                _id="301"
                id="66331"
                lat="25.013330"
                lng="121.214872"
                zoom="16" />
            <station
                name="桃園體育園區"
                _id="302"
                id="66332"
                lat="25.001481"
                lng="121.203158"
                zoom="16" />
            <station
                name="興南"
                _id="303"
                id="66333"
                lat="24.980225"
                lng="121.216161"
                zoom="16" />
            <station
                name="環北"
                _id="304"
                id="66334"
                lat="24.967058"
                lng="121.221042"
                zoom="16" />
        </line>
    </subway>
</data>