<?xml version="1.0" encoding="utf-8"?>
<data>
    <subway
        name="新北捷運"
        _id="278"
        id="278"
        lat="22.5648200"
        lng="120.3538340"
        zoom="16">
        <line
            name="淡海輕軌"
            _id="316"
            id="316"
            lat="25.048611"
            lng="121.514167"
            zoom="14">
            <station
                name="紅樹林"
                _id="279"
                id="4164"
                lat="25.154103"
                lng="121.459003"
                zoom="16" />
            <station
                name="竿蓁林"
                _id="279"
                id="66346"
                lat="25.159722"
                lng="121.451944"
                zoom="16" />
            <station
                name="淡金鄧公"
                _id="279"
                id="66347"
                lat="25.169313"
                lng="121.460841"
                zoom="16" />
            <station
                name="淡江大學"
                _id="279"
                id="66348"
                lat="25.175734"
                lng="121.456770"
                zoom="16" />
            <station
                name="淡金北新"
                _id="279"
                id="66349"
                lat="25.183611"
                lng="121.450556"
                zoom="16" />
            <station
                name="新市一路"
                _id="279"
                id="66350"
                lat="25.183779"
                lng="121.448280"
                zoom="16" />
            <station
                name="淡水行政中心"
                _id="279"
                id="66351"
                lat="25.189377"
                lng="121.443436"
                zoom="16" />
            <station
                name="濱海義山"
                _id="279"
                id="66352"
                lat="25.190125"
                lng="121.437532"
                zoom="16" />
            <station
                name="濱海沙崙"
                _id="279"
                id="66353"
                lat="25.190835"
                lng="121.431603"
                zoom="16" />
            <station
                name="淡海新市鎮"
                _id="279"
                id="66354"
                lat="25.194451"
                lng="121.432256"
                zoom="16" />
            <station
                name="崁頂"
                _id="279"
                id="66355"
                lat="25.200982"
                lng="121.434628"
                zoom="16" />

        </line>
    </subway>
</data>